{   
    "buildings": 
        [
            {"address": "Main Office for Information Tech Services", "id": "hayes", "image": "assets/images/Hayes_Hall.jpg", "lat": 41.377925, "lng": -83.639979, "name": "Hayes Hall", "phone": "", "region": "north-america"},
            {"address": "Hub for student union activities", "id": "btsu", "image": "assets/images/BTSU.jpg", "lat": 41.377455, "lng": -83.642559, "name": "BTSU", "phone": "", "region": "north-america"},
            {"address": "Holds arts and sciences courses, from cultures to languages", "id": "shatzel", "image": "assets/images/Shatzel_Hall.jpg", "lat": 41.376327, "lng": -83.641806, "name": "Shatzel Hall", "phone": "", "region": "north-america"},
            {"address": "All gender honors dormitory", "id": "founders", "image": "assets/images/Founders_Hall.jpg", "lat": 41.375353, "lng": -83.641806, "name": "Founders Hall", "phone": "", "region": "north-america"},
            {"address": "Graduate center and office of the president", "id": "mcfall", "image": "assets/images/McFall_Center.jpg", "lat": 41.375654, "lng": -83.640965, "name": "McFall Center", "phone": "", "region": "north-america"},
            {"address": "Houses the school of media and communication", "id": "kuhlin", "image": "assets/images/Kuhlin_Ceter.jpg", "lat": 41.375126, "lng": -83.640155, "name": "Kuhlin Center", "phone": "", "region": "north-america"},
            {"address": "Houses the college of business", "id": "maurer", "image": "assets/images/Maurer_Center.jpg", "lat": 41.375182, "lng": -83.639148, "name": "Maurer Center", "phone": "", "region": "north-america"},
            {"address": "Student dining center", "id": "carillon", "image": "assets/images/Carillon_Hall.jpg", "lat": 41.375662, "lng": -83.637580, "name": "Carillon Hall", "phone": "", "region": "north-america"},
            {"address": "Houses english and american culture studies", "id": "east", "image": "assets/images/East_Hall.jpg", "lat": 41.376247, "lng": -83.636846, "name": "East Hall", "phone": "", "region": "north-america"},
            {"address": "Home to the administrative offices for college of arts and sciences", "id": "central", "image": "assets/images/Central_Hall.jpg", "lat": 41.376795, "lng": -83.637400, "name": "Central Hall", "phone": "", "region": "north-america"},
            {"address": "Houses college of education and human development", "id": "education", "image": "assets/images/Education_Building.jpg", "lat": 41.376763, "lng": -83.638251, "name": "Education Building", "phone": "", "region": "north-america"},
            {"address": "Large event hall hosting many classes and events", "id": "olscamp", "image": "assets/images/Olscamp_Hall.jpg", "lat": 41.377968, "lng": -83.637480, "name": "Olscamp Hall", "phone": "", "region": "north-america"}
        ],
    "regions": 
        [
            {"coords": {"lat": 2.9660291, "lng": 1.3271339}, "id": "africa-middle-east", "name": "Africa & Middle East", "zoom": 3.0},
            {"coords": {"lat": 0.0524811, "lng": 127.6560787}, "id": "asia-pacific", "name": "Asia Pacific", "zoom": 3.0},
            {"coords": {"lat": 46.1352815, "lng": 7.4033438}, "id": "europe", "name": "Europe", "zoom": 4.0},
            {"coords": {"lat": -17.5554497, "lng": -99.2316195}, "id": "latin-america", "name": "Latin America", "zoom": 3.0},
            {"coords": {"lat": 45.7128252, "lng": -97.1547448}, "id": "north-america", "name": "North America", "zoom": 4.0}
        ]
}

